<?xml version="1.0" encoding="UTF-8"?><Stations>
	<Station><stationCode>BHPL</stationCode><stationName>Bhopal</stationName><latitude>23.24N</latitude><longitude>77.42E</longitude><samplingRate>100</samplingRate><sensorName>Trillium240</sensorName><digitizer>Taurus</digitizer><organization>NCS</organization><health>Healthy</health></Station><Station><stationCode>BHUJ</stationCode><stationName>Bhuj,Gujarat</stationName><latitude>23.25N</latitude><longitude>69.65E</longitude><samplingRate>100</samplingRate><sensorName>Trillium240</sensorName><digitizer>Taurus</digitizer><organization>NCS</organization><health>Healthy</health></Station><Station><stationCode>BOKR</stationCode><stationName>Bokaro</stationName><latitude>23.79N</latitude><longitude>85.88E</longitude><samplingRate>100</samplingRate><sensorName>Trillium240</sensorName><digitizer>Taurus</digitizer><organization>NCS</organization><health>Healthy</health></Station><Station><stationCode>CMBY</stationCode><stationName>CambellBay</stationName><latitude>7.0N</latitude><longitude>93.92E</longitude><samplingRate>100</samplingRate><sensorName>Trillium240</sensorName><digitizer>Taurus</digitizer><organization>NCS</organization><health>Healthy</health></Station><Station><stationCode>DDI</stationCode><stationName>Dehradun</stationName><latitude>30.32N</latitude><longitude>78.06E</longitude><samplingRate>100</samplingRate><sensorName>Trillium240</sensorName><digitizer>Taurus</digitizer><organization>NCS</organization><health>Healthy</health></Station><Station><stationCode>DGPR</stationCode><stationName>Diglipur</stationName><latitude>13.25N</latitude><longitude>92.98E</longitude><samplingRate>100</samplingRate><sensorName>Trillium240</sensorName><digitizer>Taurus</digitizer><organization>NCS</organization><health>Healthy</health></Station><Station><stationCode>DHRM</stationCode><stationName>Dharmashala</stationName><latitude>32.2N</latitude><longitude>76.3E</longitude><samplingRate>100</samplingRate><sensorName>Trillium240</sensorName><digitizer>Taurus</digitizer><organization>NCS</organization><health>Healthy</health></Station><Station><stationCode>GOA</stationCode><stationName>goa</stationName><latitude>15.49N</latitude><longitude>73.82E</longitude><samplingRate>100</samplingRate><sensorName>Trillium240</sensorName><digitizer>Taurus</digitizer><organization>NCS</organization><health>Healthy</health></Station><Station><stationCode>MDRS</stationCode><stationName>Chennai</stationName><latitude>13.07N</latitude><longitude>80.25E</longitude><samplingRate>100</samplingRate><sensorName>Trillium240</sensorName><digitizer>Taurus</digitizer><organization>NCS</organization><health>Healthy</health></Station><Station><stationCode>MNC</stationCode><stationName>Minicoy</stationName><latitude>8.26N</latitude><longitude>73.0E</longitude><samplingRate>100</samplingRate><sensorName>Trillium240</sensorName><digitizer>Taurus</digitizer><organization>NCS</organization><health>Healthy</health></Station><Station><stationCode>HYB</stationCode><stationName>Hyderabad</stationName><latitude>17.42N</latitude><longitude>78.96E</longitude><samplingRate>100</samplingRate><sensorName>Trillium240</sensorName><digitizer>Taurus</digitizer><organization>NCS</organization><health>Healthy</health></Station><Station><stationCode>PBA</stationCode><stationName>PortBlair</stationName><latitude>11.67N</latitude><longitude>92.72E</longitude><samplingRate>100</samplingRate><sensorName>Trillium240</sensorName><digitizer>Taurus</digitizer><organization>NCS</organization><health>Healthy</health></Station><Station><stationCode>POO</stationCode><stationName>Pune</stationName><latitude>18.53N</latitude><longitude>73.85E</longitude><samplingRate>100</samplingRate><sensorName>Trillium240</sensorName><digitizer>Taurus</digitizer><organization>NCS</organization><health>Healthy</health></Station><Station><stationCode>SHL</stationCode><stationName>Shillong</stationName><latitude>25.57N</latitude><longitude>91.88E</longitude><samplingRate>100</samplingRate><sensorName>Trillium240</sensorName><digitizer>Taurus</digitizer><organization>NCS</organization><health>Healthy</health></Station><Station><stationCode>SMLA</stationCode><stationName>Shimla</stationName><latitude>31.13N</latitude><longitude>77.17E</longitude><samplingRate>100</samplingRate><sensorName>Trillium240</sensorName><digitizer>Taurus</digitizer><organization>NCS</organization><health>Healthy</health></Station><Station><stationCode>TRVM</stationCode><stationName>Thiruvanathapuram</stationName><latitude>8.51N</latitude><longitude>76.96E</longitude><samplingRate>100</samplingRate><sensorName>Trillium240</sensorName><digitizer>Taurus</digitizer><organization>NCS</organization><health>Healthy</health></Station><Station><stationCode>VISK</stationCode><stationName>Visakhapatnam</stationName><latitude>17.75N</latitude><longitude>83.33E</longitude><samplingRate>100</samplingRate><sensorName>Trillium240</sensorName><digitizer>Taurus</digitizer><organization>NCS</organization><health>Healthy</health></Station></Stations>